City_ID,City,Lat,Lng,Max Temp,Humidity,Cloudiness,Wind Speed,Country,Date
0,petropavlovsk-kamchatsky,53.0452,158.6483,275.48,44,0,1.0,RU,1712098746
1,port-aux-francais,-49.35,70.2167,280.07,79,89,13.05,TF,1712098746
2,nepalgunj,28.05,81.6167,293.46,22,56,1.69,NP,1712098746
3,hawaiian paradise park,19.5933,-154.9731,298.88,78,75,6.17,US,1712098747
4,la passe,45.5549,-0.8967,284.28,86,100,8.35,FR,1712098747
5,tiksi,71.6872,128.8694,251.02,91,84,2.52,RU,1712098747
6,nizhneangarsk,55.7833,109.55,258.15,88,17,1.79,RU,1712098747
7,happy valley-goose bay,53.3168,-60.3315,274.32,75,75,7.72,CA,1712098700
8,amnat charoen,15.9167,104.75,301.65,60,6,4.27,TH,1712098747
9,bori,4.6737,7.362,300.91,84,97,3.63,NG,1712098747
10,kirakira,-10.4544,161.9205,300.27,84,100,1.88,SB,1712098732
11,soufriere,13.8562,-61.0566,300.31,85,75,7.72,LC,1712098747
12,kodiak,57.79,-152.4072,273.88,34,0,9.26,US,1712098589
13,crane,31.3974,-102.3501,292.77,20,83,7.1,US,1712098747
14,dunbar,38.3606,-81.7374,293.14,87,100,2.57,US,1712098502
15,ribeira grande,38.5167,-28.7,289.09,80,100,11.67,PT,1712098747
16,nova sintra,14.8667,-24.7167,292.87,80,31,10.59,CV,1712098748
17,kerikeri,-35.2268,173.9474,294.11,53,5,1.61,NZ,1712098748
18,kedougou,12.5579,-12.1743,309.47,36,0,0.0,SN,1712098748
19,bredasdorp,-34.5322,20.0403,289.14,88,49,1.43,ZA,1712098748
20,aykhal,66.0,111.5,261.75,91,100,8.02,RU,1712098748
21,adamstown,-25.066,-130.1015,297.08,72,65,12.3,PN,1712098748
22,luwuk,-0.9516,122.7875,300.43,79,96,0.95,ID,1712098748
23,tsiombe,-25.3,45.4833,294.28,89,0,4.55,MG,1712098748
24,avarua,-21.2078,-159.775,302.18,65,75,4.63,CK,1712098748
25,tapes,-30.6733,-51.3958,294.13,79,68,3.65,BR,1712098748
26,divnomorskoye,44.5011,38.1353,289.36,57,99,2.59,RU,1712098748
27,beau vallon,-20.4189,57.6953,299.28,73,75,6.69,MU,1712098748
28,ishinomaki,38.4167,141.3,281.15,56,80,2.17,JP,1712098749
29,testour,36.5513,9.4431,284.49,73,53,1.08,TN,1712098749
30,waitangi,-43.9535,-176.5597,287.49,93,100,2.68,NZ,1712098749
31,hami,42.8,93.45,279.49,42,23,0.69,CN,1712098749
32,fuyuan,46.4333,127.0833,274.8,67,15,3.57,CN,1712098749
33,edinburgh of the seven seas,-37.0676,-12.3116,288.82,77,89,7.06,SH,1712098749
34,stanley,54.868,-1.6985,280.77,94,75,2.57,GB,1712098749
35,grytviken,-54.2811,-36.5092,277.22,74,17,4.41,GS,1712098749
36,blackmans bay,-43.0167,147.3167,284.11,71,74,0.45,AU,1712098749
37,kimbe,-5.5502,150.1429,301.87,79,98,0.25,PG,1712098749
38,papatowai,-46.5619,169.4708,288.62,63,100,1.45,NZ,1712098749
39,saint-pierre,-21.3393,55.4781,297.97,78,0,13.38,RE,1712098674
40,kailua-kona,19.6406,-155.9956,301.13,81,40,4.63,US,1712098632
41,meiganga,6.5167,14.3,297.59,43,94,0.42,CM,1712098750
42,saldanha,-33.0117,17.9442,289.18,85,100,6.25,ZA,1712098750
43,port alfred,-33.5906,26.891,288.81,89,71,0.89,ZA,1712098750
44,kalkaman,51.9525,76.0211,274.8,86,89,3.18,KZ,1712098750
45,codrington,-38.2667,141.9667,287.42,80,82,4.55,AU,1712098750
46,kyiv,50.4333,30.5167,284.63,80,68,1.34,UA,1712098682
47,puerto natales,-51.7236,-72.4875,276.7,76,25,4.26,CL,1712098750
48,dunedin,-45.8742,170.5036,287.48,77,100,1.34,NZ,1712098488
49,birzebbuga,35.8258,14.5269,286.53,88,0,1.03,MT,1712098750
50,hamilton,39.1834,-84.5333,293.11,92,100,11.83,US,1712098750
51,kapit,2.0167,112.9333,296.94,100,100,0.77,MY,1712098751
52,port elizabeth,-33.918,25.5701,291.1,79,0,5.14,ZA,1712098751
53,saipan,15.1355,145.701,300.54,83,40,6.69,MP,1712098717
54,sisimiut,66.9395,-53.6735,268.87,80,91,3.09,GL,1712098751
55,keflavik,64.0049,-22.5624,274.1,100,100,5.14,IS,1712098751
56,lebu,-37.6167,-73.65,286.14,81,100,1.86,CL,1712098751
57,karratha,-20.7377,116.8463,304.03,35,56,9.8,AU,1712098751
58,badger,64.8,-147.5333,263.14,62,75,4.63,US,1712098618
59,college,64.8569,-147.8028,263.19,60,100,4.63,US,1712098751
60,yarmouth,41.7057,-70.2286,280.23,77,100,2.57,US,1712098751
61,trairi,-3.2778,-39.2689,298.84,90,97,1.52,BR,1712098491
62,tanabe,33.7333,135.3667,288.71,82,75,4.63,JP,1712098751
63,talnakh,69.4865,88.3972,260.56,80,100,4.54,RU,1712098751
64,touros,-5.1989,-35.4608,300.39,83,69,2.81,BR,1712098203
65,daru,-9.0763,143.2092,301.9,79,84,1.32,PG,1712098752
66,oranjemund,-28.55,16.4333,288.65,89,15,3.46,NA,1712098521
67,kavieng,-2.5744,150.7967,302.06,76,100,4.81,PG,1712098752
68,yellowknife,62.456,-114.3525,273.94,70,75,4.12,CA,1712098752
69,kingston,17.997,-76.7936,302.68,68,20,10.8,JM,1712098752
70,san martin de los andes,-40.1604,-71.3486,283.51,78,100,6.71,AR,1712098532
71,ulladulla,-35.35,150.4667,290.51,62,62,0.63,AU,1712098752
72,sitka,57.0531,-135.33,279.09,70,40,4.63,US,1712098752
73,bethel,41.3712,-73.414,280.35,86,100,4.12,US,1712098478
74,svit,49.0601,20.2069,279.03,83,75,8.75,SK,1712098752
75,puerto ayora,-0.7393,-90.3518,302.13,90,93,1.34,EC,1712098752
76,newman,37.3138,-121.0208,298.29,40,0,1.34,US,1712098715
77,yerofey pavlovich,53.9667,121.9667,269.8,72,57,2.35,RU,1712098681
78,bilibino,68.0546,166.4372,256.57,65,5,0.99,RU,1712098753
79,berdigestyakh,62.0989,126.6992,263.27,97,97,2.6,RU,1712098753
80,holualoa,19.6228,-155.9522,299.06,83,40,4.63,US,1712098753
81,invercargill,-46.4,168.35,289.83,67,99,4.47,NZ,1712098753
82,tanout,14.9709,8.8879,303.73,7,88,4.48,NE,1712098753
83,gebeit,21.0667,36.3167,294.97,59,0,2.49,SD,1712098753
84,albany,42.6001,-73.9662,280.39,82,100,0.45,US,1712098753
85,punta arenas,-53.15,-70.9167,277.21,75,20,7.2,CL,1712098717
86,iqaluit,63.7506,-68.5145,273.0,93,75,2.57,CA,1712098753
87,ponnani,10.767,75.9252,301.77,84,82,2.63,IN,1712098753
88,emerald,-23.5333,148.1667,298.34,74,0,3.86,AU,1712098731
89,ushuaia,-54.8,-68.3,277.96,75,75,4.12,AR,1712098652
90,tegueste,28.5167,-16.3167,289.81,92,20,4.02,ES,1712098754
91,susanville,40.4163,-120.653,294.07,39,0,2.57,US,1712098628
92,jiaojiang,28.6803,121.4428,292.29,94,92,2.29,CN,1712098754
93,kapa'a,22.0752,-159.319,299.33,70,75,7.72,US,1712098754
94,thompson,55.7435,-97.8558,275.24,64,75,0.0,CA,1712098754
95,praia da vitoria,38.7333,-27.0667,290.29,82,40,9.13,PT,1712098754
96,dinguiraye,11.3,-10.7167,307.21,25,65,0.84,GN,1712098754
97,svobodnyy,51.4,128.1333,273.02,67,27,4.42,RU,1712098754
98,mulayjah,27.271,48.4242,295.82,33,35,2.53,SA,1712098754
99,sonoita,31.85,-112.8333,295.48,25,2,4.09,MX,1712098754
100,igarka,67.4667,86.5833,268.74,96,100,7.57,RU,1712098754
101,chonchi,-42.6128,-73.8092,280.66,89,96,2.84,CL,1712098754
102,geraldton,-28.7667,114.6,296.38,38,75,8.23,AU,1712098755
103,bodaybo,57.8506,114.1933,262.97,97,99,0.6,RU,1712098584
104,atafu village,-8.5421,-172.5159,302.4,72,69,1.14,TK,1712098755
105,kazerun,29.6195,51.6541,290.43,56,44,1.29,IR,1712098755
106,opuwo,-18.0607,13.84,293.69,60,52,0.41,NA,1712098467
107,walvis bay,-22.9575,14.5053,288.76,88,1,2.06,NA,1712098755
108,nur-sultan,51.1801,71.446,272.12,100,100,2.0,KZ,1712098741
109,jogindarnagar,31.9833,76.7667,288.55,43,89,2.91,IN,1712098755
110,isafjordur,66.0755,-23.124,267.49,75,10,2.58,IS,1712098755
111,nanao,37.05,136.9667,283.86,70,100,1.46,JP,1712098755
112,oyon,-10.6681,-76.7731,282.87,95,99,1.08,PE,1712098755
113,labasa,-16.4167,179.3833,303.44,71,50,5.47,FJ,1712098755
114,anadyr,64.75,177.4833,264.43,85,20,14.0,RU,1712098599
115,wynyard,-41.0,145.7167,284.69,56,21,3.8,AU,1712098756
116,nuuk,64.1835,-51.7216,272.49,74,18,4.12,GL,1712098756
117,ilulissat,69.2167,-51.1,264.51,91,100,1.01,GL,1712098756
118,bayanhongor,46.7167,100.1167,270.34,51,100,0.79,MN,1712098756
119,rongelap,11.1635,166.8941,299.85,81,100,7.8,MH,1712098756
120,sen monorom,12.45,107.2,293.47,85,30,1.52,KH,1712098756
121,tazovsky,67.4667,78.7,269.71,96,100,7.34,RU,1712098756
122,ancud,-41.8697,-73.8203,283.47,76,67,6.97,CL,1712098756
123,port mathurin,-19.6833,63.4167,299.73,82,100,6.88,MU,1712098756
124,lihue,21.9789,-159.3672,298.92,69,75,7.72,US,1712098756
125,rafsanjan,30.4067,55.9939,286.56,43,2,0.53,IR,1712098757
126,cimitarra,6.3142,-73.9497,298.78,93,99,0.79,CO,1712098757
127,ouesso,1.6136,16.0517,297.56,82,100,1.34,CG,1712098757
128,zhaqsy,51.9083,67.3133,271.65,93,90,2.77,KZ,1712098757
129,haiku-pauwela,20.9219,-156.3051,299.35,69,40,10.29,US,1712098757
130,gazli,40.1333,63.45,284.8,44,42,3.47,UZ,1712098757
131,aketi,2.7388,23.7833,294.94,93,96,1.15,CD,1712098757
132,kayes,14.0,-11.0,310.85,13,3,1.13,ML,1712098757
133,los palacios,22.5872,-83.2486,300.06,73,67,4.45,CU,1712098757
134,udachny,66.4167,112.4,262.57,87,100,6.78,RU,1712098757
135,lerwick,60.1545,-1.1494,278.15,61,100,12.78,GB,1712098758
136,polyarnyy,69.1989,33.4478,254.68,99,26,3.62,RU,1712098758
137,fale old settlement,-9.3852,-171.2468,302.45,72,76,1.38,TK,1712098758
138,afaahiti,-17.75,-149.2833,302.08,76,62,8.01,PF,1712098758
139,utrik,11.2278,169.8474,299.87,76,100,7.42,MH,1712098758
140,konarka,19.9,86.1167,300.37,86,1,6.6,IN,1712098758
141,vorgashor,67.5833,63.95,253.1,88,84,7.63,RU,1712098749
142,nieuw amsterdam,5.8833,-55.0833,302.16,70,20,5.14,SR,1712098758
143,dolores,-36.3132,-57.6792,287.38,72,80,4.67,AR,1712098758
144,remire-montjoly,4.9167,-52.2667,301.17,83,75,3.09,GF,1712098758
145,howard springs,-12.497,131.047,300.3,96,79,3.74,AU,1712098758
146,queenstown,-31.8976,26.8753,285.83,92,48,1.16,ZA,1712098758
147,st. john's,47.5649,-52.7093,274.8,91,100,11.18,CA,1712098513
148,yelan',50.949,43.7378,285.37,60,97,6.41,RU,1712098557
149,jamestown,42.097,-79.2353,284.92,93,100,4.63,US,1712098527
150,alice springs,-23.7,133.8833,293.27,42,0,3.09,AU,1712098509
151,piacabucu,-10.4056,-36.4344,301.13,80,16,4.1,BR,1712098759
152,filadelfia,39.9523,-75.1638,281.77,96,100,6.17,US,1712098583
153,mudurnu,40.473,31.2076,287.98,40,66,1.49,TR,1712098759
154,acapulco de juarez,16.8634,-99.8901,302.05,65,0,5.66,MX,1712098078
155,silver city,32.7701,-108.2803,285.58,47,0,3.6,US,1712098581
156,tura,25.5198,90.2201,293.57,73,39,2.25,IN,1712098593
157,kabinda,-6.1333,24.4833,292.58,93,92,0.94,CD,1712098759
158,icano,-28.9193,-65.3282,292.18,73,22,5.24,AR,1712098759
159,tosya,41.0155,34.0401,289.86,42,100,1.42,TR,1712098759
160,kristiansund,63.1115,7.732,273.18,55,75,6.69,NO,1712098750
161,onokhoy,51.932,108.0747,260.01,72,1,0.96,RU,1712098760
162,fort bragg,35.139,-79.006,301.47,53,75,7.72,US,1712098604
163,ahtari,62.554,24.0619,270.88,90,100,5.15,FI,1712098760
164,la'ie,21.6477,-157.9253,302.13,71,88,3.58,US,1712098760
165,arish,31.1316,33.7984,290.25,88,0,1.03,EG,1712098760
166,zadar,44.1197,15.2422,282.49,81,20,2.06,HR,1712098560
167,mar del plata,-38.0023,-57.5575,291.41,67,0,16.54,AR,1712098630
168,wailua homesteads,22.0669,-159.378,298.59,70,75,7.72,US,1712098760
169,aasiaat,68.7098,-52.8699,263.59,91,87,1.93,GL,1712098760
170,kiunga,-6.1219,141.2906,299.26,92,92,0.41,PG,1712098760
171,whakatane,-37.9585,176.9854,293.58,95,94,2.24,NZ,1712098760
172,gwadar,25.1216,62.3254,297.86,69,100,2.31,PK,1712098760
173,xichang,27.8964,102.2634,288.36,62,64,1.49,CN,1712098761
174,santander,43.4647,-3.8044,288.41,67,40,1.03,ES,1712098761
175,dalandzadgad,43.5708,104.425,277.9,46,94,3.63,MN,1712098761
176,swift current,50.2834,-107.8014,287.6,35,0,7.2,CA,1712098761
177,carnarvon,-24.8667,113.6333,301.1,42,55,8.31,AU,1712098761
178,port lincoln,-34.7333,135.8667,289.41,70,97,3.0,AU,1712098761
179,amga,60.8953,131.9608,262.59,96,100,1.82,RU,1712098688
180,barra de santo antonio,-9.4047,-35.5072,300.75,82,96,2.88,BR,1712098761
181,constantia,44.1833,28.65,286.53,57,98,3.22,RO,1712098701
182,margaret river,-33.95,115.0667,282.97,88,1,4.51,AU,1712098524
183,severo-yeniseyskiy,60.3725,93.0408,266.25,96,99,1.79,RU,1712098761
184,whitehorse,60.7161,-135.0538,276.58,44,75,2.06,CA,1712098589
185,puerto colombia,10.9878,-74.9547,303.2,82,90,11.94,CO,1712098762
186,long,18.0761,99.8326,302.33,43,2,1.18,TH,1712098762
187,malvan,16.0667,73.4667,297.87,81,48,3.38,IN,1712098762
188,aral,40.5156,81.2636,283.0,36,18,2.92,CN,1712098762
189,potanino,55.1786,61.6222,282.28,81,0,7.0,RU,1712098762
190,hermanus,-34.4187,19.2345,287.48,83,59,4.12,ZA,1712098762
191,ocean shores,46.9737,-124.1563,285.9,93,100,7.2,US,1712098623
192,prince rupert,54.3161,-130.3201,281.2,66,20,9.77,CA,1712098508
193,qaqortoq,60.7167,-46.0333,265.59,86,0,1.71,GL,1712098762
194,georgetown,5.4112,100.3354,302.11,83,20,1.54,MY,1712098756
195,portland,45.5234,-122.6762,297.82,38,20,2.68,US,1712098722
196,guozhen,34.3659,107.359,286.09,60,100,1.18,CN,1712098762
197,son tay,21.1378,105.505,299.11,91,28,2.69,VN,1712098762
198,west island,-12.1568,96.8225,300.14,78,92,4.12,CC,1712098763
199,akureyri,65.6835,-18.0878,261.11,85,0,2.57,IS,1712098516
200,naracoorte,-36.9579,140.7383,287.87,74,98,2.43,AU,1712098763
201,kaa-khem,51.6833,94.7333,273.38,80,100,0.75,RU,1712098763
202,enewetak,11.3474,162.3373,299.94,82,86,9.88,MH,1712098763
203,cheremukhovo,60.3484,59.9851,279.8,94,100,4.47,RU,1712098763
204,gadzhiyevo,69.2551,33.3362,253.81,99,37,3.55,RU,1712098763
205,minas de marcona,-15.2119,-75.1103,291.93,72,82,4.78,PE,1712098763
206,olonkinbyen,70.9221,-8.7187,269.55,63,78,6.7,SJ,1712098763
207,basco,20.4487,121.9702,300.11,84,21,9.08,PH,1712098763
208,cabo san lucas,22.8909,-109.9124,297.93,56,24,3.8,MX,1712098557
209,viedma,-40.8135,-62.9967,295.13,44,100,12.19,AR,1712098504
210,la gi,10.6667,107.7833,298.48,86,86,2.84,VN,1712098763
211,macapa,0.0389,-51.0664,303.14,74,20,4.63,BR,1712098764
212,san antonio de pale,-1.4014,5.6325,301.91,75,80,2.31,GQ,1712098764
213,chibougamau,49.9168,-74.3659,275.94,41,0,4.63,CA,1712098468
214,yabucoa,18.0505,-65.8793,300.37,83,13,5.28,PR,1712098764
215,urmary,55.6789,47.944,280.82,90,95,5.44,RU,1712098764
216,karachi,24.9056,67.0822,298.05,73,91,3.6,PK,1712098518
217,tutoia,-2.7619,-42.2744,299.84,88,89,2.69,BR,1712098764
218,chui,-33.6971,-53.4616,288.5,75,27,2.59,UY,1712098578
219,isiolo,0.3546,37.5822,294.63,79,94,1.92,KE,1712098764
220,mugia,43.1041,-9.2179,287.54,90,25,9.26,ES,1712098764
221,olyokminsk,60.3736,120.4264,269.41,92,99,3.11,RU,1712098764
222,buka,40.8108,69.1986,284.48,70,100,1.18,UZ,1712098765
223,isabela,6.7085,121.9711,299.18,79,11,1.44,PH,1712098765
224,gorgoram,12.6398,10.7039,305.43,11,19,4.01,NG,1712098765
225,northam,51.0333,-4.2167,284.6,96,93,8.56,GB,1712098765
226,bahir dar,11.5936,37.3908,295.55,27,99,2.11,ET,1712098765
227,new norfolk,-42.7826,147.0587,284.77,68,58,1.36,AU,1712098765
228,aldan,58.6031,125.3894,267.99,95,100,2.2,RU,1712098765
229,manaure,11.7751,-72.4445,301.82,67,100,10.43,CO,1712098765
230,lamu,-2.2717,40.902,300.76,81,93,4.53,KE,1712098765
231,namibe,-15.1961,12.1522,296.59,75,29,3.34,AO,1712098765
232,saint-philippe,-21.3585,55.7679,297.92,83,94,6.98,RE,1712098765
233,magadan,59.5667,150.8,266.68,63,1,2.55,RU,1712098760
234,campo gallo,-26.5833,-62.85,292.39,89,95,0.52,AR,1712098766
235,shache,38.4167,77.2406,284.66,27,65,2.66,CN,1712098766
236,san patricio,28.017,-97.5169,304.09,27,0,7.8,US,1712098766
237,genhe,50.7833,121.5167,266.35,89,94,1.23,CN,1712098766
238,al artawiyah,26.5053,45.3444,293.94,21,62,3.56,SA,1712098766
239,acarau,-2.8856,-40.12,299.87,87,100,2.28,BR,1712098754
240,mercedes,-34.6515,-59.4307,291.28,69,46,4.65,AR,1712098766
241,necochea,-38.5473,-58.7368,291.42,47,100,6.46,AR,1712098615
242,kone,-21.0595,164.8658,302.13,57,7,2.24,NC,1712098766
243,pantay na matanda,14.1175,121.1211,300.73,82,32,2.98,PH,1712098766
244,morant bay,17.8815,-76.4093,302.94,70,100,3.97,JM,1712098767
245,balykshi,47.0667,51.8667,284.15,62,0,6.0,KZ,1712098521
246,elliot lake,46.3834,-82.6331,279.74,52,96,7.92,CA,1712098767
247,machico,32.7,-16.7667,290.77,78,40,2.57,PT,1712098767
248,westport,41.1415,-73.3579,280.98,89,100,7.72,US,1712098767
249,vilhena,-12.7406,-60.1458,300.27,74,20,2.06,BR,1712098322
250,tamboril,19.4854,-70.611,302.58,58,20,4.12,DO,1712098767
251,barcelos,41.5388,-8.6151,287.23,98,54,2.49,PT,1712098767
252,wladyslawowo,54.7909,18.4009,279.82,91,100,9.61,PL,1712098767
253,bubaque,11.2833,-15.8333,297.87,73,26,9.23,GW,1712098767
254,del rio,29.3627,-100.8968,300.16,19,40,8.75,US,1712098679
255,tabou,4.423,-7.3528,300.93,88,48,2.11,CI,1712098767
256,cabedelo,-6.9811,-34.8339,302.52,83,34,4.38,BR,1712098768
257,tvoroyri,61.5556,-6.8111,277.04,56,100,12.17,FO,1712098768
258,mogocha,53.7333,119.7667,267.17,84,88,1.64,RU,1712098768
259,galesong,-5.3166,119.3661,298.16,85,100,2.47,ID,1712098768
260,jiangzi,28.95,89.6333,270.74,70,17,2.94,CN,1712098768
261,payakumbuh,-0.2202,100.6308,294.98,97,86,0.71,ID,1712098768
262,fisterra,42.9049,-9.2629,287.45,89,20,9.11,ES,1712098768
263,horta,38.5333,-28.6333,288.54,81,99,11.61,PT,1712098768
264,lobujya,27.95,86.8167,263.4,70,52,0.88,NP,1712098768
265,taro,-8.3862,115.28,296.15,94,81,0.16,ID,1712098768
266,caldwell,43.6629,-116.6874,295.92,34,0,2.06,US,1712098578
267,la sarre,48.8002,-79.1996,273.74,77,32,5.31,CA,1712098768
268,christchurch,-43.5333,172.6333,291.16,71,86,7.72,NZ,1712098559
269,ar rahad,12.7167,30.65,298.8,14,77,2.02,SD,1712098769
270,zhytkavichy,52.2168,27.8561,280.76,89,100,10.01,BY,1712098769
271,muroto-misakicho,33.2833,134.15,290.31,95,100,2.2,JP,1712098769
272,lospalos,-8.5186,127.0025,297.93,83,99,0.28,TL,1712098769
273,tumaco,1.7986,-78.8156,297.57,89,100,0.43,CO,1712098769
274,mahikeng,-25.8652,25.6442,293.14,60,71,3.09,ZA,1712098769
275,midvagur,62.0511,-7.1939,274.61,51,75,3.6,FO,1712098769
276,messini,37.0511,22.0078,291.58,88,63,3.6,GR,1712098769
277,klaksvik,62.2266,-6.589,274.66,59,100,11.3,FO,1712098769
278,rajapur,25.3833,81.15,299.16,18,100,1.6,IN,1712098769
279,zelenogorskiy,55.0333,87.0,273.75,99,100,1.55,RU,1712098770
280,hobyo,5.3505,48.5268,301.38,74,25,4.01,SO,1712098667
281,santa maria do suacui,-18.1903,-42.4142,295.25,98,100,0.78,BR,1712098771
282,arteche,12.2645,125.4048,299.18,84,85,2.06,PH,1712098771
283,port saint john's,-31.6229,29.5448,294.69,77,100,2.59,ZA,1712098771
284,chamical,-30.36,-66.314,292.58,65,6,4.47,AR,1712098771
285,vila do maio,15.1333,-23.2167,295.59,78,10,8.26,CV,1712098721
286,wellington,-41.2866,174.7756,292.03,71,75,8.23,NZ,1712098629
287,tonj,7.2737,28.6822,300.46,54,92,3.14,SS,1712098771
288,kegeyli shahar,42.7767,59.6078,280.2,61,0,3.02,UZ,1712098771
289,san luis de la loma,17.2706,-100.8939,301.49,65,67,5.15,MX,1712098771
290,shaoxing,30.011,120.5715,292.12,86,97,3.08,CN,1712098772
291,ambon,-3.6954,128.1814,301.97,95,40,1.54,ID,1712098772
292,cuyo,10.8525,121.0086,300.95,76,82,3.08,PH,1712098772
293,klyuchi,52.2667,79.1667,273.47,98,92,2.83,RU,1712098772
294,khandyga,62.6667,135.6,260.58,95,100,0.74,RU,1712098772
295,ola,59.5833,151.2833,266.26,65,1,3.45,RU,1712098772
296,bengkulu,-3.8004,102.2655,298.41,90,71,1.68,ID,1712098772
297,alaghsas,17.0187,8.0168,303.49,7,94,4.42,NE,1712098772
298,fuxin,42.0156,121.6589,279.57,22,100,3.23,CN,1712098772
299,flin flon,54.7682,-101.865,281.06,39,40,1.54,CA,1712098706
300,nikolayevsk-on-amure,53.1406,140.73,270.57,83,84,1.87,RU,1712098772
301,malango,-2.9627,119.9001,294.35,97,100,0.41,ID,1712098772
302,sint michiel liber,12.15,-68.9833,302.05,74,20,5.14,CW,1712098773
303,tangalle,6.024,80.7911,299.2,87,97,1.59,LK,1712098773
304,chrysoupolis,40.9856,24.6939,288.11,57,31,1.62,GR,1712098773
305,mana,5.6592,-53.7767,300.07,85,22,4.27,GF,1712098667
306,adler,43.43,39.92,290.24,42,62,7.0,RU,1712098773
307,maintirano,-18.0667,44.0167,298.8,86,3,2.75,MG,1712098773
308,weno,7.4515,151.8468,301.48,77,100,9.75,FM,1712098773
309,okha,53.5739,142.9478,267.96,82,96,5.52,RU,1712098773
310,porbandar,21.6422,69.6093,297.56,80,82,3.95,IN,1712098773
311,iskateley,67.6803,53.1512,256.7,91,5,4.96,RU,1712098773
312,bikenibeu village,1.3673,173.1241,302.13,84,40,2.06,KI,1712098773
313,gargalianoi,37.0667,21.6333,290.01,84,86,4.17,GR,1712098773
314,myeik,12.4333,98.6,298.83,80,29,1.17,MM,1712098774
315,taltal,-25.4,-70.4833,291.38,86,24,1.48,CL,1712098774
316,katabu,-4.9333,122.5167,298.5,91,100,1.15,ID,1712098774
317,susuman,62.7833,148.1667,254.81,79,8,1.34,RU,1712098774
318,corner brook,48.9667,-57.9484,275.24,84,92,4.51,CA,1712098612
319,saint-leu,-21.15,55.2833,297.63,75,91,2.1,RE,1712098774
320,san sebastian de la gomera,28.0916,-17.1133,293.35,72,0,2.57,ES,1712098708
321,nurmes,63.5421,29.1397,267.19,88,100,5.35,FI,1712098774
322,ust-nera,64.5667,143.2,259.26,86,68,1.05,RU,1712098774
323,n'zeto,-7.2312,12.8666,300.33,88,65,2.22,AO,1712098774
324,nadym,65.5333,72.5167,273.64,98,100,9.39,RU,1712098590
325,castillos,-34.1667,-53.8333,287.92,74,35,2.26,UY,1712098774
326,mariehamn,60.0973,19.9348,273.07,74,100,9.26,AX,1712098774
327,sao felix do xingu,-6.6447,-51.995,297.06,97,84,0.65,BR,1712098775
328,bay roberts,47.5999,-53.2648,275.0,86,78,4.92,CA,1712098775
329,pematangsiantar,2.9595,99.0687,295.19,93,98,1.36,ID,1712098775
330,ankazoabo,-22.2833,44.5167,293.44,86,7,2.31,MG,1712098775
331,choyr,46.3611,108.3611,269.99,42,3,1.23,MN,1712098775
332,canico,32.6333,-16.85,290.77,78,40,2.57,PT,1712098775
333,nemuro,43.3236,145.575,274.86,66,1,3.55,JP,1712098775
334,botou,38.0667,116.5667,283.7,55,100,6.2,CN,1712098775
335,xilin hot,43.9667,116.0333,274.4,35,61,2.71,CN,1712098775
336,argostolion,38.1811,20.489,288.2,75,95,3.81,GR,1712098775
337,cole harbour,44.6724,-63.4751,279.86,67,74,1.79,CA,1712098775
338,hanko,59.8333,22.95,273.62,95,100,9.83,FI,1712098775
339,inirida,3.8653,-67.9239,302.03,69,83,0.96,CO,1712098632
340,hasaki,35.7333,140.8333,286.37,72,100,2.96,JP,1712098776
341,labrador city,52.9463,-66.9114,274.1,69,100,4.12,CA,1712098776
342,carutapera,-1.195,-46.02,298.88,93,70,2.63,BR,1712098776
343,kayangel,8.0823,134.7173,301.11,80,77,10.51,PW,1712098776
344,inhambane,-23.865,35.3833,297.08,89,6,2.4,MZ,1712098776
345,richards bay,-28.783,32.0377,294.58,93,2,2.12,ZA,1712098776
346,salinas,36.6777,-121.6555,297.94,61,0,5.14,US,1712098776
347,dryden,49.7833,-92.7503,279.31,42,75,3.6,CA,1712098776
348,uturoa,-16.7333,-151.4333,301.69,75,25,8.4,PF,1712098776
349,puerto penasco,31.3167,-113.5333,294.21,62,0,4.47,MX,1712098776
350,ilha de mocambique,-15.0342,40.7358,300.52,78,27,3.38,MZ,1712098777
351,shimoda,34.6667,138.95,288.76,75,100,3.62,JP,1712098777
352,yelizovo,53.1873,158.3805,276.23,44,0,1.0,RU,1712098777
353,lorengau,-2.0226,147.2712,302.14,77,92,4.66,PG,1712098777
354,nishinoomote,30.7333,131.0,295.13,91,100,8.48,JP,1712098777
355,maracas,-13.4411,-40.4308,295.18,78,40,1.34,BR,1712098777
356,guerrero negro,27.9769,-114.0611,294.08,48,0,6.59,MX,1712098777
357,dzuunharaa,48.8523,106.4579,269.02,71,1,1.56,MN,1712098777
358,aromashevo,56.8602,68.6375,274.05,94,77,6.1,RU,1712098777
359,tindouf,27.6711,-8.1474,296.4,20,0,6.69,DZ,1712098777
360,boda,4.3189,17.4695,297.74,67,100,1.65,CF,1712098778
361,nova petropolis,-29.3764,-51.1144,292.4,89,85,0.9,BR,1712098778
362,alofi,-19.0595,-169.9187,303.09,74,75,7.2,NU,1712098778
363,penzance,50.1186,-5.5371,284.53,92,90,13.19,GB,1712098778
364,kuanda,56.3161,116.0806,261.3,93,57,0.26,RU,1712098778
365,belawan,3.7755,98.6832,299.31,89,92,1.46,ID,1712098778
366,selfoss,63.9331,-20.9971,272.62,86,100,3.92,IS,1712098638
367,benghazi,32.1167,20.0667,294.29,46,0,4.37,LY,1712098778
368,san carlos,9.6612,-68.5827,303.36,54,100,1.98,VE,1712098778
369,quellon,-43.1167,-73.6167,281.8,77,99,5.14,CL,1712098778
370,greenville,35.6127,-77.3663,302.24,48,0,4.12,US,1712098610
371,longyearbyen,78.2186,15.6401,256.06,71,75,5.14,SJ,1712098778
372,san jose del cabo,23.0589,-109.6977,297.92,57,26,2.68,MX,1712098480
373,nuku'alofa,-21.1333,-175.2,302.34,70,20,5.66,TO,1712098779
374,pauini,-7.7136,-66.9764,298.59,88,63,1.56,BR,1712098779
375,tsirang,27.0219,90.1229,285.43,67,28,2.33,BT,1712098779
376,kapuskasing,49.4169,-82.4331,280.2,26,40,7.2,CA,1712098779
377,vilyuysk,63.7553,121.6247,259.45,100,98,2.18,RU,1712098779
378,nambucca,-30.6333,152.9833,296.96,63,15,3.26,AU,1712098779
379,bindura,-17.3019,31.3306,290.94,83,84,1.18,ZW,1712098779
380,maya,11.2743,124.0579,299.72,78,70,5.96,PH,1712098779
381,champerico,14.3,-91.9167,308.45,65,5,5.77,GT,1712098779
382,boende,-0.2167,20.8667,295.31,95,82,0.85,CD,1712098779
383,namsos,64.4662,11.4957,269.18,63,100,2.06,NO,1712098755
384,paramonga,-10.6667,-77.8333,295.78,81,27,3.73,PE,1712098780
385,zhangye,38.9342,100.4517,281.0,52,97,4.88,CN,1712098780
386,fandrandava,-21.5208,47.2453,289.98,99,100,2.06,MG,1712098780
387,revda,56.801,59.9303,277.53,97,100,5.52,RU,1712098780
388,okny,47.5404,29.46,283.42,64,7,5.15,UA,1712098780
389,nantucket,41.2835,-70.0995,279.34,81,100,4.12,US,1712098780
390,laojunmiao,39.8333,97.7333,275.72,67,95,0.11,CN,1712098780
391,cestos city,5.46,-9.5828,300.83,90,45,3.22,LR,1712098780
392,argo,37.6333,22.7333,290.25,67,100,2.27,GR,1712098780
393,al muwayh,22.4333,41.7583,292.35,69,10,3.77,SA,1712098780
394,princeton,25.5384,-80.4089,300.37,80,77,3.13,US,1712098781
395,franklin,39.9667,-83.0166,293.8,90,75,6.17,US,1712098577
396,huarmey,-10.0681,-78.1522,296.32,79,21,3.85,PE,1712098781
397,ibiza,38.9088,1.433,289.94,76,0,2.24,ES,1712098781
398,changji,44.0167,87.3167,278.59,70,0,1.0,CN,1712098781
399,katsuura,35.1333,140.3,289.1,76,98,4.87,JP,1712098781
400,banaz,38.7371,29.7519,287.81,41,87,0.87,TR,1712098781
401,khammam,17.25,80.15,299.56,71,17,2.43,IN,1712098781
402,frontera,26.9333,-101.45,301.98,22,4,3.13,MX,1712098781
403,aioun,16.6614,-9.6149,307.58,14,1,5.06,MR,1712098781
404,maffra,-37.9667,146.9833,287.12,62,40,1.53,AU,1712098781
405,tipasa,36.5897,2.4475,289.25,62,99,1.64,DZ,1712098781
406,omdurman,15.6445,32.4777,301.74,13,80,5.2,SD,1712098782
407,grand-bassam,5.2118,-3.7388,303.13,87,100,2.16,CI,1712098523
408,balaipungut,1.05,101.2833,297.21,99,62,0.14,ID,1712098782
409,arraial do cabo,-22.9661,-42.0278,297.13,88,0,1.54,BR,1712098548
410,black point,-34.6187,137.8972,289.88,65,94,2.37,AU,1712098782
411,olinda,-8.0089,-34.8553,303.0,79,40,3.09,BR,1712098782
412,amasra,41.7463,32.3863,289.15,61,71,2.45,TR,1712098782
413,kragujevac,44.0167,20.9167,282.31,80,69,2.25,RS,1712098782
414,ciudad del carmen,18.6333,-91.8333,305.52,59,14,5.32,MX,1712098772
415,nar'yan-mar,67.6713,53.087,256.82,91,5,5.01,RU,1712098782
416,livingston,55.9029,-3.5226,280.08,99,100,4.12,GB,1712098782
417,city of balikpapan,-1.242,116.8942,299.12,94,20,2.57,ID,1712098783
418,fendou,46.65,124.8667,274.54,61,2,3.43,CN,1712098783
419,fortuna,40.5982,-124.1573,288.11,87,100,4.63,US,1712098783
420,salalah,17.0151,54.0924,298.12,59,69,0.45,OM,1712098666
421,nabire,-3.3667,135.4833,299.6,88,89,0.27,ID,1712098783
422,joetsu,37.1483,138.2364,285.39,61,100,1.13,JP,1712098659
423,north nowra,-34.8581,150.5828,293.68,68,59,3.58,AU,1712098783
424,kruisfontein,-34.0033,24.7314,286.97,88,64,2.99,ZA,1712098783
425,berezovyy,51.6667,135.7,273.18,65,23,0.74,RU,1712098783
426,coaldale,49.7167,-112.6185,292.7,34,75,10.8,CA,1712098783
427,sianow,54.2265,16.2913,279.8,92,100,8.34,PL,1712098784
428,ta'izz,13.5,44.0,292.87,67,82,2.9,YE,1712098669
429,dabou,5.3256,-4.3769,301.18,89,91,3.1,CI,1712098784
430,sandnessjoen,66.0217,12.6316,264.44,67,11,5.1,NO,1712098784
431,santa cruz,-17.8,-63.1667,299.18,83,75,7.2,BO,1712098650
432,chivilcoy,-34.8957,-60.0167,289.0,63,52,4.78,AR,1712098784
433,bandon,51.7469,-8.7425,280.92,93,100,5.98,IE,1712098784
434,cao bang,22.6667,106.25,294.78,96,0,0.6,VN,1712098784
435,kyzylorda,44.8528,65.5092,278.16,65,0,4.0,KZ,1712098784
436,naze,28.3667,129.4833,294.66,90,57,8.88,JP,1712098784
437,lionel town,17.8101,-77.2406,303.09,68,99,4.45,JM,1712098784
438,guadalupe y calvo,26.1,-106.9667,285.53,16,0,4.69,MX,1712098784
439,princeville,45.7668,-61.2985,275.71,91,100,1.54,CA,1712098785
440,nova vicosa,-17.8919,-39.3719,298.87,84,91,2.09,BR,1712098785
441,bol,13.4586,14.7147,300.91,41,30,4.85,TD,1712098785
442,egilsstadir,65.2653,-14.3948,270.1,63,75,2.57,IS,1712098785
443,as sulayyil,20.4607,45.5779,292.29,62,99,1.23,SA,1712098785
444,ebon,4.582,168.6964,301.33,78,100,7.75,MH,1712098785
445,sao joao da barra,-21.6403,-41.0511,298.2,85,70,3.7,BR,1712098785
446,smithers,54.7804,-127.1743,281.33,39,20,8.23,CA,1712098785
447,isla mujeres,21.2311,-86.731,302.13,82,43,7.26,MX,1712098786
448,quepos,9.4236,-84.1652,302.23,67,14,2.21,CR,1712098786
449,yuzhno-kurilsk,44.0306,145.8556,274.5,74,5,2.84,RU,1712098786
450,ain taya,36.7933,3.2869,288.06,82,40,1.54,DZ,1712098786
451,moree,-29.4667,149.85,296.3,46,20,3.91,AU,1712098786
452,panama city beach,30.1766,-85.8055,297.75,94,100,3.58,US,1712098785
453,kampung baharu nilai,2.8033,101.7972,300.09,94,20,1.54,MY,1712098786
454,vilyuchinsk,52.9306,158.4028,276.3,76,100,3.49,RU,1712098786
455,vadso,70.0744,29.7487,262.24,79,96,6.69,NO,1712098691
456,tsetserleg,47.475,101.4542,270.53,43,90,1.07,MN,1712098786
457,varzea grande,-15.6467,-56.1325,302.08,74,40,2.06,BR,1712098542
458,kill devil hills,36.0307,-75.676,296.15,79,0,6.17,US,1712098786
459,boyolangu,-8.1181,111.8935,298.55,92,71,1.0,ID,1712098787
460,sosnovo-ozerskoye,52.5249,111.5418,264.09,65,87,2.08,RU,1712098787
461,valdivia,-39.8142,-73.2459,289.2,97,66,1.51,CL,1712098527
462,viqueque,-8.8673,126.3658,299.31,87,93,1.1,TL,1712098787
463,belmonte,-15.8631,-38.8828,299.76,87,100,2.11,BR,1712098787
464,novyy turtkul',41.55,61.0167,280.1,50,7,3.54,UZ,1712098787
465,tolanaro,-25.0319,46.9987,296.19,83,75,3.09,MG,1712098787
466,jaicos,-7.3592,-41.1378,297.12,89,94,1.17,BR,1712098142
467,birao,10.2849,22.7882,299.82,6,94,1.71,CF,1712098787
468,east london,-33.0153,27.9116,291.7,71,15,3.27,ZA,1712098788
469,ko pha ngan,9.7578,100.0291,299.53,73,100,4.36,TH,1712098788
470,grenville,12.1167,-61.6167,301.18,80,98,6.27,GD,1712098788
471,sovetskiy,61.3614,63.5842,276.98,99,100,5.36,RU,1712098788
472,juhaynah,26.6732,31.4976,300.33,29,0,5.47,EG,1712098788
473,luderitz,-26.6481,15.1594,290.76,73,1,1.84,NA,1712098788
474,shahrak,34.1074,64.3052,273.5,76,8,1.2,AF,1712098788
475,mobaye,4.319,21.1786,297.66,75,92,2.66,CF,1712098788
476,mount pearl,47.5166,-52.7813,274.34,91,100,10.29,CA,1712098788
477,wonju,37.3514,127.9453,283.04,71,100,1.31,KR,1712098788
478,broome,42.2506,-75.833,279.65,94,100,7.2,US,1712098789
479,lively,46.4334,-81.1498,283.66,49,91,6.84,CA,1712098790
480,joao pessoa,-7.115,-34.8631,302.28,79,20,3.6,BR,1712098686
481,port blair,11.6667,92.75,298.17,88,36,1.03,IN,1712098790
482,aripuana,-9.1667,-60.6333,298.54,85,99,0.61,BR,1712098790
483,ad-damazin,11.7891,34.3592,302.98,48,99,2.72,SD,1712098790
484,watsa,3.0372,29.5355,291.32,93,97,1.28,CD,1712098790
485,mossel bay,-34.1831,22.146,290.11,88,72,0.78,ZA,1712098790
486,ghadamis,30.1337,9.5007,294.74,33,44,8.6,LY,1712098790
487,mammoth lakes,37.6485,-118.9721,287.55,20,0,2.57,US,1712098577
488,qarqaraly,49.4058,75.4742,272.36,89,98,2.47,KZ,1712098790
489,suntar,62.1444,117.6319,265.86,95,97,2.94,RU,1712098790
490,santa elena de uairen,4.6167,-61.1333,299.32,54,100,1.53,VE,1712098791
491,ialibu,-6.2821,143.9935,291.24,81,100,0.48,PG,1712098791
492,conception bay south,47.4999,-52.9981,274.67,91,96,10.27,CA,1712098791
493,jayapura,-2.5333,140.7,299.81,89,100,1.95,ID,1712098791
494,palapag,12.5458,125.1147,299.55,79,74,2.84,PH,1712098791
495,pyetrykaw,52.1289,28.4921,279.82,90,97,10.11,BY,1712098791
496,ventspils,57.3894,21.5606,277.11,100,100,2.57,LV,1712098791
497,kurayoshi,35.4333,133.8167,288.1,97,100,2.37,JP,1712098791
498,kenai,60.5544,-151.2583,271.2,80,100,0.0,US,1712098791
499,kataba,13.9833,44.3833,288.9,72,96,0.93,YE,1712098791
500,loralai,30.3705,68.598,287.75,33,33,2.42,PK,1712098791
501,glenvale,-27.5648,151.9076,295.31,80,3,0.89,AU,1712098792
502,sinabang,2.4803,96.3801,300.32,80,100,1.04,ID,1712098792
503,titron,29.6681,77.3225,292.45,33,100,3.07,IN,1712098792
504,ganye,8.4333,12.0667,302.39,38,92,1.36,NG,1712098792
505,hajin,34.6927,40.827,295.44,35,0,1.45,SY,1712098792
506,callao,-12.0667,-77.15,297.31,64,0,6.69,PE,1712098792
507,al burayqah,30.4062,19.5739,294.65,53,0,3.21,LY,1712098792
508,suva,-18.1416,178.4415,302.86,74,75,6.17,FJ,1712098792
509,zhaozhou,45.6833,125.3167,275.03,51,0,4.25,CN,1712098792
510,xinyuan,37.3,99.0,268.98,87,59,0.77,CN,1712098792
511,greymouth,-42.4667,171.2,287.2,81,100,1.41,NZ,1712098792
512,douz,33.4663,9.0203,289.77,49,0,4.42,TN,1712098793
513,arafat,21.3594,39.9664,299.57,64,0,1.11,SA,1712098793
514,bad lobenstein,50.4493,11.6381,280.99,86,86,5.45,DE,1712098793
515,la ronge,55.1001,-105.2842,282.29,31,75,4.63,CA,1712098793
516,yatou,37.15,122.3833,282.15,73,100,7.03,CN,1712098793
517,taulaga,-11.0553,-171.0883,300.79,79,100,1.72,AS,1712098793
518,dalhousie,32.5333,75.9833,280.91,46,89,3.95,IN,1712098793
519,na wa,17.4897,104.1006,301.17,41,27,2.1,TH,1712098793
520,recreo,-29.2818,-65.061,292.49,71,41,8.04,AR,1712098793
521,vernon,50.2581,-119.2691,294.6,48,100,1.54,CA,1712098793
522,tralee,52.2704,-9.7026,280.82,95,100,1.73,IE,1712098793
523,caleta de carquin,-11.0925,-77.6267,295.71,80,28,3.52,PE,1712098793
524,campina,45.1333,25.7333,282.79,59,41,1.74,RO,1712098794
525,port moresby,-9.4431,147.1797,301.09,80,100,0.51,PG,1712098794
526,dawukou,39.0419,106.3958,281.13,50,100,2.14,CN,1712098794
527,catriel,-37.8791,-67.7956,293.49,31,70,16.86,AR,1712098794
528,lago da pedra,-4.3333,-45.1667,297.69,96,96,1.64,BR,1712098794
529,plettenberg bay,-34.0527,23.3716,288.75,86,79,1.95,ZA,1712098794
530,marsannay-la-cote,47.271,4.989,280.85,81,0,1.54,FR,1712098794
531,phan rang-thap cham,11.5667,108.9833,297.36,84,70,1.62,VN,1712098794
532,san andres,12.5847,-81.7006,303.16,66,20,4.63,CO,1712098794
533,lompoc,34.6391,-120.4579,295.29,60,0,5.14,US,1712098574
534,idil,37.3411,41.8895,287.38,43,3,2.69,TR,1712098794
535,bani walid,31.7566,13.9942,287.42,75,6,5.26,LY,1712098794
536,mejit,10.2753,170.8646,299.96,72,100,7.84,MH,1712098794
537,dudinka,69.4058,86.1778,262.57,94,100,6.73,RU,1712098795
538,litchfield,41.7668,-73.2501,279.21,93,100,1.79,US,1712098777
539,ulsteinvik,62.3432,5.8487,275.24,56,68,7.6,NO,1712098795
540,goksun,38.021,36.4973,285.85,62,42,1.29,TR,1712098522
541,rahimah,26.7079,50.0619,293.27,49,82,2.2,SA,1712098795
542,woodstock,43.1334,-80.7497,277.96,96,100,0.89,CA,1712098657
543,colonia,50.9333,6.95,284.75,84,75,3.09,DE,1712098630
544,kurumkan,54.3,110.3,264.89,81,7,3.13,RU,1712098795
545,mukalla,14.5425,49.1242,299.2,76,65,1.8,YE,1712098567
546,aliwal north,-30.6937,26.7114,287.66,46,1,2.62,ZA,1712098795
547,nenagh,52.8619,-8.1967,281.24,98,100,3.75,IE,1712098657
548,khon buri,14.5254,102.2459,298.21,72,20,3.1,TH,1712098795
549,puerto santa,-8.9906,-78.6456,296.1,80,13,4.12,PE,1712098795
550,verkhovazh'ye,60.7472,42.0465,274.9,96,100,4.52,RU,1712098795
551,canon city,38.441,-105.2424,290.24,17,0,2.06,US,1712098638
552,carhaix-plouguer,48.2759,-3.5733,283.37,98,100,5.73,FR,1712098796
553,fortaleza,-3.7227,-38.5247,302.22,79,20,3.09,BR,1712098191
554,lazaro cardenas,17.9583,-102.2,300.04,69,96,5.81,MX,1712098643
555,damara,4.9608,18.7035,300.91,56,100,2.91,CF,1712098796
556,dharur,18.8167,76.1167,300.62,25,96,4.9,IN,1712098796
557,el porvenir,13.7617,-87.3458,306.78,40,5,3.95,HN,1712098796
558,roma,43.2128,-75.4557,279.86,86,100,4.12,US,1712098671
559,pompeia,-22.1086,-50.1717,299.42,77,95,0.59,BR,1712098796
560,deogarh,21.5333,84.7333,299.44,24,8,2.13,IN,1712098796
561,swanzey,42.8698,-72.2818,281.95,69,100,3.58,US,1712098796
562,villa emilio carranza,19.9667,-96.6,300.97,73,55,6.27,MX,1712098796
563,zhanaozen,43.3,52.8,284.83,48,52,4.96,KZ,1712098797
564,hovd,48.0056,91.6419,273.2,44,5,0.22,MN,1712098797
565,talara,-4.5772,-81.2719,301.57,61,0,4.12,PE,1712098797
566,trelaze,47.45,-0.4667,284.33,86,100,4.12,FR,1712098797
567,zapolyarnyy,69.4154,30.8136,260.75,99,70,2.04,RU,1712098797
568,fada,9.5667,8.3,299.61,44,15,0.51,NG,1712098797
569,lethbridge,49.7,-112.8186,292.42,34,75,10.8,CA,1712098519
570,kingscliff,-28.2667,153.5667,300.24,67,5,4.63,AU,1712098797
571,iquitos,-3.7481,-73.2472,305.17,58,40,2.06,PE,1712098797
572,heusweiler,49.35,6.9333,283.62,75,0,3.09,DE,1712098797
573,aldama,22.9167,-98.0667,308.43,21,66,10.81,MX,1712098797
574,hithadhoo,-0.6,73.0833,301.48,74,78,1.03,MV,1712098798
575,kavaratti,10.5669,72.642,301.6,74,79,2.43,IN,1712098798
576,macau,22.2006,113.5461,300.04,94,40,4.12,MO,1712098759
